header:
  stamp:
    sec: 526
    nanosec: 286000000
  frame_id: odom
child_frame_id: base_footprint
pose:
  pose:
    position:
      x: -1.7233154546102942
      y: -0.38110426708649925
      z: 0.008529540503584834
    orientation:
      x: -0.0005436968310716681
      y: 0.0028145323264639837
      z: 0.20655031867767112
      w: 0.9784317802768324
  covariance:
  - 1.0e-05
  - 0.0
  - 0.0
  - 0.0
  - 0.0
  - 0.0
  - 0.0
  - 1.0e-05
  - 0.0
  - 0.0
  - 0.0
  - 0.0
  - 0.0
  - 0.0
  - 1000000000000.0
  - 0.0
  - 0.0
  - 0.0
  - 0.0
  - 0.0
  - 0.0
  - 1000000000000.0
  - 0.0
  - 0.0
  - 0.0
  - 0.0
  - 0.0
  - 0.0
  - 1000000000000.0
  - 0.0
  - 0.0
  - 0.0
  - 0.0
  - 0.0
  - 0.0
  - 0.001
twist:
  twist:
    linear:
      x: 3.31113006062075e-06
      y: 2.9108206959894983e-08
      z: 0.0
    angular:
      x: 0.0
      y: 0.0
      z: -5.917141286978422e-08
  covariance:
  - 1.0e-05
  - 0.0
  - 0.0
  - 0.0
  - 0.0
  - 0.0
  - 0.0
  - 1.0e-05
  - 0.0
  - 0.0
  - 0.0
  - 0.0
  - 0.0
  - 0.0
  - 1000000000000.0
  - 0.0
  - 0.0
  - 0.0
  - 0.0
  - 0.0
  - 0.0
  - 1000000000000.0
  - 0.0
  - 0.0
  - 0.0
  - 0.0
  - 0.0
  - 0.0
  - 1000000000000.0
  - 0.0
  - 0.0
  - 0.0
  - 0.0
  - 0.0
  - 0.0
  - 0.001
---
header:
  stamp:
    sec: 526
    nanosec: 320000000
  frame_id: odom
child_frame_id: base_footprint
pose:
  pose:
    position:
      x: -1.723315439310651
      y: -0.3811042602532219
      z: 0.00852868144997787
    orientation:
      x: -0.0005438505190712811
      y: 0.0028152590606501434
      z: 0.20655031858400483
      w: 0.9784317781204168
  covariance:
  - 1.0e-05
  - 0.0
  - 0.0
  - 0.0
  - 0.0
  - 0.0
  - 0.0
  - 1.0e-05
  - 0.0
  - 0.0
  - 0.0
  - 0.0
  - 0.0
  - 0.0
  - 1000000000000.0
  - 0.0
  - 0.0
  - 0.0
  - 0.0
  - 0.0
  - 0.0
  - 1000000000000.0
  - 0.0
  - 0.0
  - 0.0
  - 0.0
  - 0.0
  - 0.0
  - 1000000000000.0
  - 0.0
  - 0.0
  - 0.0
  - 0.0
  - 0.0
  - 0.0
  - 0.001
twist:
  twist:
    linear:
      x: 2.626805437270788e-06
      y: 2.8527036081423424e-08
      z: 0.0
    angular:
      x: 0.0
      y: 0.0
      z: -6.363858149435162e-08
  covariance:
  - 1.0e-05
  - 0.0
  - 0.0
  - 0.0
  - 0.0
  - 0.0
  - 0.0
  - 1.0e-05
  - 0.0
  - 0.0
  - 0.0
  - 0.0
  - 0.0
  - 0.0
  - 1000000000000.0
  - 0.0
  - 0.0
  - 0.0
  - 0.0
  - 0.0
  - 0.0
  - 1000000000000.0
  - 0.0
  - 0.0
  - 0.0
  - 0.0
  - 0.0
  - 0.0
  - 1000000000000.0
  - 0.0
  - 0.0
  - 0.0
  - 0.0
  - 0.0
  - 0.0
  - 0.001
---
header:
  stamp:
    sec: 526
    nanosec: 354000000
  frame_id: odom
child_frame_id: base_footprint
pose:
  pose:
    position:
      x: -1.723315414022317
      y: -0.38110424922351527
      z: 0.008530119392843207
    orientation:
      x: -0.0005441100014920482
      y: 0.002816486364772274
      z: 0.20655031822795128
      w: 0.9784317745192025
  covariance:
  - 1.0e-05
  - 0.0
  - 0.0
  - 0.0
  - 0.0
  - 0.0
  - 0.0
  - 1.0e-05
  - 0.0
  - 0.0
  - 0.0
  - 0.0
  - 0.0
  - 0.0
  - 1000000000000.0
  - 0.0
  - 0.0
  - 0.0
  - 0.0
  - 0.0
  - 0.0
  - 1000000000000.0
  - 0.0
  - 0.0
  - 0.0
  - 0.0
  - 0.0
  - 0.0
  - 1000000000000.0
  - 0.0
  - 0.0
  - 0.0
  - 0.0
  - 0.0
  - 0.0
  - 0.001
twist:
  twist:
    linear:
      x: 1.462366993121986e-06
      y: 4.738693707619941e-08
      z: 0.0
    angular:
      x: 0.0
      y: 0.0
      z: -5.9546466740961704e-08
  covariance:
  - 1.0e-05
  - 0.0
  - 0.0
  - 0.0
  - 0.0
  - 0.0
  - 0.0
  - 1.0e-05
  - 0.0
  - 0.0
  - 0.0
  - 0.0
  - 0.0
  - 0.0
  - 1000000000000.0
  - 0.0
  - 0.0
  - 0.0
  - 0.0
  - 0.0
  - 0.0
  - 1000000000000.0
  - 0.0
  - 0.0
  - 0.0
  - 0.0
  - 0.0
  - 0.0
  - 1000000000000.0
  - 0.0
  - 0.0
  - 0.0
  - 0.0
  - 0.0
  - 0.0
  - 0.001
---
header:
  stamp:
    sec: 526
    nanosec: 388000000
  frame_id: odom
child_frame_id: base_footprint
pose:
  pose:
    position:
      x: -1.7233154123519279
      y: -0.38110424843535456
      z: 0.008526642992937586
    orientation:
      x: -0.000544109598936713
      y: 0.0028164843488310827
      z: 0.20655031855798858
      w: 0.9784317744555573
  covariance:
  - 1.0e-05
  - 0.0
  - 0.0
  - 0.0
  - 0.0
  - 0.0
  - 0.0
  - 1.0e-05
  - 0.0
  - 0.0
  - 0.0
  - 0.0
  - 0.0
  - 0.0
  - 1000000000000.0
  - 0.0
  - 0.0
  - 0.0
  - 0.0
  - 0.0
  - 0.0
  - 1000000000000.0
  - 0.0
  - 0.0
  - 0.0
  - 0.0
  - 0.0
  - 0.0
  - 1000000000000.0
  - 0.0
  - 0.0
  - 0.0
  - 0.0
  - 0.0
  - 0.0
  - 0.001
twist:
  twist:
    linear:
      x: 2.6209052317959914e-06
      y: 3.211397306179598e-08
      z: 0.0
    angular:
      x: 0.0
      y: 0.0
      z: -6.598199605223995e-08
  covariance:
  - 1.0e-05
  - 0.0
  - 0.0
  - 0.0
  - 0.0
  - 0.0
  - 0.0
  - 1.0e-05
  - 0.0
  - 0.0
  - 0.0
  - 0.0
  - 0.0
  - 0.0
  - 1000000000000.0
  - 0.0
  - 0.0
  - 0.0
  - 0.0
  - 0.0
  - 0.0
  - 1000000000000.0
  - 0.0
  - 0.0
  - 0.0
  - 0.0
  - 0.0
  - 0.0
  - 1000000000000.0
  - 0.0
  - 0.0
  - 0.0
  - 0.0
  - 0.0
  - 0.0
  - 0.001
---
header:
  stamp:
    sec: 526
    nanosec: 422000000
  frame_id: odom
child_frame_id: base_footprint
pose:
  pose:
    position:
      x: -1.7233154097823093
      y: -0.3811042473596823
      z: 0.00853367410021629
    orientation:
      x: -0.0005441178175672427
      y: 0.0028165238635811307
      z: 0.20655031881751626
      w: 0.978431774282453
  covariance:
  - 1.0e-05
  - 0.0
  - 0.0
  - 0.0
  - 0.0
  - 0.0
  - 0.0
  - 1.0e-05
  - 0.0
  - 0.0
  - 0.0
  - 0.0
  - 0.0
  - 0.0
  - 1000000000000.0
  - 0.0
  - 0.0
  - 0.0
  - 0.0
  - 0.0
  - 0.0
  - 1000000000000.0
  - 0.0
  - 0.0
  - 0.0
  - 0.0
  - 0.0
  - 0.0
  - 1000000000000.0
  - 0.0
  - 0.0
  - 0.0
  - 0.0
  - 0.0
  - 0.0
  - 0.001
twist:
  twist:
    linear:
      x: 4.5673131998187586e-06
      y: 4.926589788655991e-08
      z: 0.0
    angular:
      x: 0.0
      y: 0.0
      z: -5.461606028279264e-08
  covariance:
  - 1.0e-05
  - 0.0
  - 0.0
  - 0.0
  - 0.0
  - 0.0
  - 0.0
  - 1.0e-05
  - 0.0
  - 0.0
  - 0.0
  - 0.0
  - 0.0
  - 0.0
  - 1000000000000.0
  - 0.0
  - 0.0
  - 0.0
  - 0.0
  - 0.0
  - 0.0
  - 1000000000000.0
  - 0.0
  - 0.0
  - 0.0
  - 0.0
  - 0.0
  - 0.0
  - 1000000000000.0
  - 0.0
  - 0.0
  - 0.0
  - 0.0
  - 0.0
  - 0.0
  - 0.001
---
header:
  stamp:
    sec: 526
    nanosec: 456000000
  frame_id: odom
child_frame_id: base_footprint
pose:
  pose:
    position:
      x: -1.723315419118087
      y: -0.3811042514973984
      z: 0.008531266461069414
    orientation:
      x: -0.0005439886982633626
      y: 0.0028159131706016684
      z: 0.20655031947141853
      w: 0.9784317759739647
  covariance:
  - 1.0e-05
  - 0.0
  - 0.0
  - 0.0
  - 0.0
  - 0.0
  - 0.0
  - 1.0e-05
  - 0.0
  - 0.0
  - 0.0
  - 0.0
  - 0.0
  - 0.0
  - 1000000000000.0
  - 0.0
  - 0.0
  - 0.0
  - 0.0
  - 0.0
  - 0.0
  - 1000000000000.0
  - 0.0
  - 0.0
  - 0.0
  - 0.0
  - 0.0
  - 0.0
  - 1000000000000.0
  - 0.0
  - 0.0
  - 0.0
  - 0.0
  - 0.0
  - 0.0
  - 0.001
twist:
  twist:
    linear:
      x: 6.822449107717172e-07
      y: 4.8547158433585533e-08
      z: 0.0
    angular:
      x: 0.0
      y: 0.0
      z: -7.022556720731992e-08
  covariance:
  - 1.0e-05
  - 0.0
  - 0.0
  - 0.0
  - 0.0
  - 0.0
  - 0.0
  - 1.0e-05
  - 0.0
  - 0.0
  - 0.0
  - 0.0
  - 0.0
  - 0.0
  - 1000000000000.0
  - 0.0
  - 0.0
  - 0.0
  - 0.0
  - 0.0
  - 0.0
  - 1000000000000.0
  - 0.0
  - 0.0
  - 0.0
  - 0.0
  - 0.0
  - 0.0
  - 1000000000000.0
  - 0.0
  - 0.0
  - 0.0
  - 0.0
  - 0.0
  - 0.0
  - 0.001
---
header:
  stamp:
    sec: 526
    nanosec: 490000000
  frame_id: odom
child_frame_id: base_footprint
pose:
  pose:
    position:
      x: -1.7233154304451623
      y: -0.3811042564851659
      z: 0.008534601333924008
    orientation:
      x: -0.0005438433794601519
      y: 0.00281522617945371
      z: 0.20655032012270388
      w: 0.9784317778941697
  covariance:
  - 1.0e-05
  - 0.0
  - 0.0
  - 0.0
  - 0.0
  - 0.0
  - 0.0
  - 1.0e-05
  - 0.0
  - 0.0
  - 0.0
  - 0.0
  - 0.0
  - 0.0
  - 1000000000000.0
  - 0.0
  - 0.0
  - 0.0
  - 0.0
  - 0.0
  - 0.0
  - 1000000000000.0
  - 0.0
  - 0.0
  - 0.0
  - 0.0
  - 0.0
  - 0.0
  - 1000000000000.0
  - 0.0
  - 0.0
  - 0.0
  - 0.0
  - 0.0
  - 0.0
  - 0.001
twist:
  twist:
    linear:
      x: 4.077023759672378e-06
      y: 4.750182146816327e-08
      z: 0.0
    angular:
      x: 0.0
      y: 0.0
      z: -4.7070666702007015e-08
  covariance:
  - 1.0e-05
  - 0.0
  - 0.0
  - 0.0
  - 0.0
  - 0.0
  - 0.0
  - 1.0e-05
  - 0.0
  - 0.0
  - 0.0
  - 0.0
  - 0.0
  - 0.0
  - 1000000000000.0
  - 0.0
  - 0.0
  - 0.0
  - 0.0
  - 0.0
  - 0.0
  - 1000000000000.0
  - 0.0
  - 0.0
  - 0.0
  - 0.0
  - 0.0
  - 0.0
  - 1000000000000.0
  - 0.0
  - 0.0
  - 0.0
  - 0.0
  - 0.0
  - 0.0
  - 0.001
---
header:
  stamp:
    sec: 526
    nanosec: 524000000
  frame_id: odom
child_frame_id: base_footprint
pose:
  pose:
    position:
      x: -1.7233154342620334
      y: -0.3811042581642336
      z: 0.008531724182163325
    orientation:
      x: -0.0005437786005192051
      y: 0.0028149195925779935
      z: 0.20655032061648307
      w: 0.9784317787080248
  covariance:
  - 1.0e-05
  - 0.0
  - 0.0
  - 0.0
  - 0.0
  - 0.0
  - 0.0
  - 1.0e-05
  - 0.0
  - 0.0
  - 0.0
  - 0.0
  - 0.0
  - 0.0
  - 1000000000000.0
  - 0.0
  - 0.0
  - 0.0
  - 0.0
  - 0.0
  - 0.0
  - 1000000000000.0
  - 0.0
  - 0.0
  - 0.0
  - 0.0
  - 0.0
  - 0.0
  - 1000000000000.0
  - 0.0
  - 0.0
  - 0.0
  - 0.0
  - 0.0
  - 0.0
  - 0.001
twist:
  twist:
    linear:
      x: 3.930818588046461e-06
      y: 3.9140935069347774e-08
      z: 0.0
    angular:
      x: 0.0
      y: 0.0
      z: -5.492775271293673e-08
  covariance:
  - 1.0e-05
  - 0.0
  - 0.0
  - 0.0
  - 0.0
  - 0.0
  - 0.0
  - 1.0e-05
  - 0.0
  - 0.0
  - 0.0
  - 0.0
  - 0.0
  - 0.0
  - 1000000000000.0
  - 0.0
  - 0.0
  - 0.0
  - 0.0
  - 0.0
  - 0.0
  - 1000000000000.0
  - 0.0
  - 0.0
  - 0.0
  - 0.0
  - 0.0
  - 0.0
  - 1000000000000.0
  - 0.0
  - 0.0
  - 0.0
  - 0.0
  - 0.0
  - 0.0
  - 0.001
---
header:
  stamp:
    sec: 526
    nanosec: 558000000
  frame_id: odom
child_frame_id: base_footprint
pose:
  pose:
    position:
      x: -1.7233154286917243
      y: -0.38110425566655004
      z: 0.008529540776123197
    orientation:
      x: -0.0005438212063025623
      y: 0.0028151209035479183
      z: 0.20655032083525715
      w: 0.9784317780589746
  covariance:
  - 1.0e-05
  - 0.0
  - 0.0
  - 0.0
  - 0.0
  - 0.0
  - 0.0
  - 1.0e-05
  - 0.0
  - 0.0
  - 0.0
  - 0.0
  - 0.0
  - 0.0
  - 1000000000000.0
  - 0.0
  - 0.0
  - 0.0
  - 0.0
  - 0.0
  - 0.0
  - 1000000000000.0
  - 0.0
  - 0.0
  - 0.0
  - 0.0
  - 0.0
  - 0.0
  - 1000000000000.0
  - 0.0
  - 0.0
  - 0.0
  - 0.0
  - 0.0
  - 0.0
  - 0.001
twist:
  twist:
    linear:
      x: 3.301370545501978e-06
      y: 2.910218945239592e-08
      z: 0.0
    angular:
      x: 0.0
      y: 0.0
      z: -5.945928490279665e-08
  covariance:
  - 1.0e-05
  - 0.0
  - 0.0
  - 0.0
  - 0.0
  - 0.0
  - 0.0
  - 1.0e-05
  - 0.0
  - 0.0
  - 0.0
  - 0.0
  - 0.0
  - 0.0
  - 1000000000000.0
  - 0.0
  - 0.0
  - 0.0
  - 0.0
  - 0.0
  - 0.0
  - 1000000000000.0
  - 0.0
  - 0.0
  - 0.0
  - 0.0
  - 0.0
  - 0.0
  - 1000000000000.0
  - 0.0
  - 0.0
  - 0.0
  - 0.0
  - 0.0
  - 0.0
  - 0.001
---
header:
  stamp:
    sec: 526
    nanosec: 592000000
  frame_id: odom
child_frame_id: base_footprint
pose:
  pose:
    position:
      x: -1.7233154137347357
      y: -0.38110424898505474
      z: 0.00852868170363303
    orientation:
      x: -0.0005439710041414265
      y: 0.0028158292913030743
      z: 0.20655032074949925
      w: 0.9784317759553948
  covariance:
  - 1.0e-05
  - 0.0
  - 0.0
  - 0.0
  - 0.0
  - 0.0
  - 0.0
  - 1.0e-05
  - 0.0
  - 0.0
  - 0.0
  - 0.0
  - 0.0
  - 0.0
  - 1000000000000.0
  - 0.0
  - 0.0
  - 0.0
  - 0.0
  - 0.0
  - 0.0
  - 1000000000000.0
  - 0.0
  - 0.0
  - 0.0
  - 0.0
  - 0.0
  - 0.0
  - 1000000000000.0
  - 0.0
  - 0.0
  - 0.0
  - 0.0
  - 0.0
  - 0.0
  - 0.001
twist:
  twist:
    linear:
      x: 2.6168892629091193e-06
      y: 2.852149632969939e-08
      z: 0.0
    angular:
      x: 0.0
      y: 0.0
      z: -6.376950854132732e-08
  covariance:
  - 1.0e-05
  - 0.0
  - 0.0
  - 0.0
  - 0.0
  - 0.0
  - 0.0
  - 1.0e-05
  - 0.0
  - 0.0
  - 0.0
  - 0.0
  - 0.0
  - 0.0
  - 1000000000000.0
  - 0.0
  - 0.0
  - 0.0
  - 0.0
  - 0.0
  - 0.0
  - 1000000000000.0
  - 0.0
  - 0.0
  - 0.0
  - 0.0
  - 0.0
  - 0.0
  - 1000000000000.0
  - 0.0
  - 0.0
  - 0.0
  - 0.0
  - 0.0
  - 0.0
  - 0.001
---
header:
  stamp:
    sec: 526
    nanosec: 626000000
  frame_id: odom
child_frame_id: base_footprint
pose:
  pose:
    position:
      x: -1.7233153933141883
      y: -0.38110424010366867
      z: 0.008535499232627157
    orientation:
      x: -0.0005441780828286885
      y: 0.002816809183929504
      z: 0.20655032051975925
      w: 0.9784317730682199
  covariance:
  - 1.0e-05
  - 0.0
  - 0.0
  - 0.0
  - 0.0
  - 0.0
  - 0.0
  - 1.0e-05
  - 0.0
  - 0.0
  - 0.0
  - 0.0
  - 0.0
  - 0.0
  - 1000000000000.0
  - 0.0
  - 0.0
  - 0.0
  - 0.0
  - 0.0
  - 0.0
  - 1000000000000.0
  - 0.0
  - 0.0
  - 0.0
  - 0.0
  - 0.0
  - 0.0
  - 1000000000000.0
  - 0.0
  - 0.0
  - 0.0
  - 0.0
  - 0.0
  - 0.0
  - 0.001
twist:
  twist:
    linear:
      x: 4.2772124135662885e-06
      y: 5.4031437066708966e-08
      z: 0.0
    angular:
      x: 0.0
      y: 0.0
      z: -4.176565493705919e-08
  covariance:
  - 1.0e-05
  - 0.0
  - 0.0
  - 0.0
  - 0.0
  - 0.0
  - 0.0
  - 1.0e-05
  - 0.0
  - 0.0
  - 0.0
  - 0.0
  - 0.0
  - 0.0
  - 1000000000000.0
  - 0.0
  - 0.0
  - 0.0
  - 0.0
  - 0.0
  - 0.0
  - 1000000000000.0
  - 0.0
  - 0.0
  - 0.0
  - 0.0
  - 0.0
  - 0.0
  - 1000000000000.0
  - 0.0
  - 0.0
  - 0.0
  - 0.0
  - 0.0
  - 0.0
  - 0.001
---
header:
  stamp:
    sec: 526
    nanosec: 660000000
  frame_id: odom
child_frame_id: base_footprint
pose:
  pose:
    position:
      x: -1.7233153958015992
      y: -0.3811042411154724
      z: 0.008527371734469394
    orientation:
      x: -0.0005441284043227149
      y: 0.002816573810165009
      z: 0.20655032099316673
      w: 0.9784317736735001
  covariance:
  - 1.0e-05
  - 0.0
  - 0.0
  - 0.0
  - 0.0
  - 0.0
  - 0.0
  - 1.0e-05
  - 0.0
  - 0.0
  - 0.0
  - 0.0
  - 0.0
  - 0.0
  - 1000000000000.0
  - 0.0
  - 0.0
  - 0.0
  - 0.0
  - 0.0
  - 0.0
  - 1000000000000.0
  - 0.0
  - 0.0
  - 0.0
  - 0.0
  - 0.0
  - 0.0
  - 1000000000000.0
  - 0.0
  - 0.0
  - 0.0
  - 0.0
  - 0.0
  - 0.0
  - 0.001
twist:
  twist:
    linear:
      x: 1.1749515708388174e-06
      y: 3.566730719994676e-08
      z: 0.0
    angular:
      x: 0.0
      y: 0.0
      z: -7.620709412278956e-08
  covariance:
  - 1.0e-05
  - 0.0
  - 0.0
  - 0.0
  - 0.0
  - 0.0
  - 0.0
  - 1.0e-05
  - 0.0
  - 0.0
  - 0.0
  - 0.0
  - 0.0
  - 0.0
  - 1000000000000.0
  - 0.0
  - 0.0
  - 0.0
  - 0.0
  - 0.0
  - 0.0
  - 1000000000000.0
  - 0.0
  - 0.0
  - 0.0
  - 0.0
  - 0.0
  - 0.0
  - 1000000000000.0
  - 0.0
  - 0.0
  - 0.0
  - 0.0
  - 0.0
  - 0.0
  - 0.001
---
header:
  stamp:
    sec: 526
    nanosec: 694000000
  frame_id: odom
child_frame_id: base_footprint
pose:
  pose:
    position:
      x: -1.7233154055430089
      y: -0.38110424550719224
      z: 0.008529736981504884
    orientation:
      x: -0.000543996535437798
      y: 0.002815950444706326
      z: 0.2065503216190076
      w: 0.9784317754089689
  covariance:
  - 1.0e-05
  - 0.0
  - 0.0
  - 0.0
  - 0.0
  - 0.0
  - 0.0
  - 1.0e-05
  - 0.0
  - 0.0
  - 0.0
  - 0.0
  - 0.0
  - 0.0
  - 1000000000000.0
  - 0.0
  - 0.0
  - 0.0
  - 0.0
  - 0.0
  - 0.0
  - 1000000000000.0
  - 0.0
  - 0.0
  - 0.0
  - 0.0
  - 0.0
  - 0.0
  - 1000000000000.0
  - 0.0
  - 0.0
  - 0.0
  - 0.0
  - 0.0
  - 0.0
  - 0.001
twist:
  twist:
    linear:
      x: 3.2237011930162467e-06
      y: 4.154125005711868e-08
      z: 0.0
    angular:
      x: 0.0
      y: 0.0
      z: -6.499583065009908e-08
  covariance:
  - 1.0e-05
  - 0.0
  - 0.0
  - 0.0
  - 0.0
  - 0.0
  - 0.0
  - 1.0e-05
  - 0.0
  - 0.0
  - 0.0
  - 0.0
  - 0.0
  - 0.0
  - 1000000000000.0
  - 0.0
  - 0.0
  - 0.0
  - 0.0
  - 0.0
  - 0.0
  - 1000000000000.0
  - 0.0
  - 0.0
  - 0.0
  - 0.0
  - 0.0
  - 0.0
  - 1000000000000.0
  - 0.0
  - 0.0
  - 0.0
  - 0.0
  - 0.0
  - 0.0
  - 0.001
---
header:
  stamp:
    sec: 526
    nanosec: 728000000
  frame_id: odom
child_frame_id: base_footprint
pose:
  pose:
    position:
      x: -1.7233154112487639
      y: -0.3811042480609574
      z: 0.008531193883162987
    orientation:
      x: -0.0005439089662174722
      y: 0.0028155364675438474
      z: 0.2065503221590515
      w: 0.9784317765349961
  covariance:
  - 1.0e-05
  - 0.0
  - 0.0
  - 0.0
  - 0.0
  - 0.0
  - 0.0
  - 1.0e-05
  - 0.0
  - 0.0
  - 0.0
  - 0.0
  - 0.0
  - 0.0
  - 1000000000000.0
  - 0.0
  - 0.0
  - 0.0
  - 0.0
  - 0.0
  - 0.0
  - 1000000000000.0
  - 0.0
  - 0.0
  - 0.0
  - 0.0
  - 0.0
  - 0.0
  - 1000000000000.0
  - 0.0
  - 0.0
  - 0.0
  - 0.0
  - 0.0
  - 0.0
  - 0.001
twist:
  twist:
    linear:
      x: 6.730194994444691e-07
      y: 4.860267148219685e-08
      z: 0.0
    angular:
      x: 0.0
      y: 0.0
      z: -6.884950954520638e-08
  covariance:
  - 1.0e-05
  - 0.0
  - 0.0
  - 0.0
  - 0.0
  - 0.0
  - 0.0
  - 1.0e-05
  - 0.0
  - 0.0
  - 0.0
  - 0.0
  - 0.0
  - 0.0
  - 1000000000000.0
  - 0.0
  - 0.0
  - 0.0
  - 0.0
  - 0.0
  - 0.0
  - 1000000000000.0
  - 0.0
  - 0.0
  - 0.0
  - 0.0
  - 0.0
  - 0.0
  - 1000000000000.0
  - 0.0
  - 0.0
  - 0.0
  - 0.0
  - 0.0
  - 0.0
  - 0.001
---
header:
  stamp:
    sec: 526
    nanosec: 762000000
  frame_id: odom
child_frame_id: base_footprint
pose:
  pose:
    position:
      x: -1.7233154228687493
      y: -0.38110425317766183
      z: 0.008534598841833033
    orientation:
      x: -0.0005437603853427163
      y: 0.002814833999021764
      z: 0.20655032283640584
      w: 0.978431778495761
  covariance:
  - 1.0e-05
  - 0.0
  - 0.0
  - 0.0
  - 0.0
  - 0.0
  - 0.0
  - 1.0e-05
  - 0.0
  - 0.0
  - 0.0
  - 0.0
  - 0.0
  - 0.0
  - 1000000000000.0
  - 0.0
  - 0.0
  - 0.0
  - 0.0
  - 0.0
  - 0.0
  - 1000000000000.0
  - 0.0
  - 0.0
  - 0.0
  - 0.0
  - 0.0
  - 0.0
  - 1000000000000.0
  - 0.0
  - 0.0
  - 0.0
  - 0.0
  - 0.0
  - 0.0
  - 0.001
twist:
  twist:
    linear:
      x: 4.0682821541430655e-06
      y: 4.750905774910969e-08
      z: 0.0
    angular:
      x: 0.0
      y: 0.0
      z: -4.6923654592473374e-08
  covariance:
  - 1.0e-05
  - 0.0
  - 0.0
  - 0.0
  - 0.0
  - 0.0
  - 0.0
  - 1.0e-05
  - 0.0
  - 0.0
  - 0.0
  - 0.0
  - 0.0
  - 0.0
  - 1000000000000.0
  - 0.0
  - 0.0
  - 0.0
  - 0.0
  - 0.0
  - 0.0
  - 1000000000000.0
  - 0.0
  - 0.0
  - 0.0
  - 0.0
  - 0.0
  - 0.0
  - 1000000000000.0
  - 0.0
  - 0.0
  - 0.0
  - 0.0
  - 0.0
  - 0.0
  - 0.001
---
